[{"_id":"a6ad292c-593e-48a9-a019-bf0cbb382327","name":"Collins-Klein Cinema","email":"bwidd0@miitbeian.gov.cn","phone":"260-160-2901","country":"United States","address":"94 Carberry Point","State":"Indiana","City":"Fort Wayne","Zip":"46862","lat":41.07,"long":-85.14,"showings":[{"movies":[{"id":"1000727","timings":[{"time":"9:00","capacity_max":250,"capacity_consumed":149},{"time":"12:00","capacity_max":250,"capacity_consumed":30},{"time":"14:00","capacity_max":230,"capacity_consumed":149},{"time":"17:00","capacity_max":230,"capacity_consumed":30}]}]}]},
{"_id":"c94ee0b0-cb4a-463d-8589-8ee442a155bf","name":"Harris Inc Cinema","email":"ecocker1@army.mil","phone":"812-623-0734","country":"United States","address":"2261 Veith Park","State":"Indiana","City":"Terre Haute","Zip":"47812","lat":39.4596137,"long":-87.3478243,"showings":[{"movies":[{"id":"1000727","timings":[{"time":"9:00","capacity_max":250,"capacity_consumed":50},{"time":"12:00","capacity_max":150,"capacity_consumed":50},{"time":"14:00","capacity_max":200,"capacity_consumed":149},{"time":"17:00","capacity_max":230,"capacity_consumed":149}]},{"id":"1005486","timings":[{"time":"9:00","capacity_max":150,"capacity_consumed":80},{"time":"12:00","capacity_max":150,"capacity_consumed":100},{"time":"14:00","capacity_max":250,"capacity_consumed":80},{"time":"17:00","capacity_max":200,"capacity_consumed":100}]},{"id":"1005799","timings":[{"time":"9:00","capacity_max":150,"capacity_consumed":80},{"time":"12:00","capacity_max":200,"capacity_consumed":50},{"time":"14:00","capacity_max":230,"capacity_consumed":80}]}]}]},
{"_id":"836ad61f-7061-4827-82cb-787e691d8cdd","name":"Buckridge-Barrows Cinema","email":"jbasketter2@devhub.com","phone":"812-404-4695","country":"United States","address":"64120 Fairfield Trail","State":"Indiana","City":"Evansville","Zip":"47747","lat":38.03,"long":-87.58,"showings":[{"movies":[{"id":"1000727","timings":[{"time":"9:00","capacity_max":250,"capacity_consumed":80},{"time":"12:00","capacity_max":250,"capacity_consumed":80},{"time":"14:00","capacity_max":200,"capacity_consumed":30},{"time":"17:00","capacity_max":250,"capacity_consumed":80}]},{"id":"1005486","timings":[{"time":"9:00","capacity_max":250,"capacity_consumed":100},{"time":"12:00","capacity_max":170,"capacity_consumed":100}]},{"id":"1005799","timings":[{"time":"9:00","capacity_max":150,"capacity_consumed":149},{"time":"12:00","capacity_max":170,"capacity_consumed":80},{"time":"14:00","capacity_max":250,"capacity_consumed":100},{"time":"17:00","capacity_max":200,"capacity_consumed":30}]}]}]},
{"_id":"eb454028-59e2-481e-8893-c27155c035ca","name":"Sauer-Bergnaum Cinema","email":"rtarpey3@time.com","phone":"317-794-6403","country":"United States","address":"880 Grasskamp Plaza","State":"Indiana","City":"Indianapolis","Zip":"46278","lat":39.8911731,"long":-86.2869507,"showings":[{"movies":[{"id":"1000727","timings":[{"time":"9:00","capacity_max":250,"capacity_consumed":80},{"time":"12:00","capacity_max":150,"capacity_consumed":100},{"time":"14:00","capacity_max":150,"capacity_consumed":149},{"time":"17:00","capacity_max":250,"capacity_consumed":80}]}]}]},
{"_id":"97d8a621-de0e-41b6-ac2a-c32adbe32270","name":"Hayes, Keebler and Turner Cinema","email":"jeggleton4@hibu.com","phone":"317-157-6669","country":"United States","address":"66160 Green Ridge Crossing","State":"Indiana","City":"Indianapolis","Zip":"46202","lat":39.7794767,"long":-86.1700894,"showings":[{"movies":[{"id":"1000727","timings":[{"time":"9:00","capacity_max":230,"capacity_consumed":100},{"time":"12:00","capacity_max":170,"capacity_consumed":50},{"time":"14:00","capacity_max":150,"capacity_consumed":100},{"time":"17:00","capacity_max":170,"capacity_consumed":149}]},{"id":"1005486","timings":[{"time":"9:00","capacity_max":250,"capacity_consumed":80},{"time":"12:00","capacity_max":200,"capacity_consumed":80}]},{"id":"1005799","timings":[{"time":"9:00","capacity_max":200,"capacity_consumed":50},{"time":"12:00","capacity_max":150,"capacity_consumed":50}]}]}]},
{"_id":"561de63a-fde8-4511-837d-1376178c2db6","name":"Krajcik-McClure Cinema","email":"dsantos5@macromedia.com","phone":"574-917-2311","country":"United States","address":"903 Bellgrove Alley","State":"Indiana","City":"South Bend","Zip":"46620","lat":41.6919638,"long":-86.3754398,"showings":[{"movies":[{"id":"1000727","timings":[{"time":"9:00","capacity_max":250,"capacity_consumed":149},{"time":"12:00","capacity_max":150,"capacity_consumed":80},{"time":"14:00","capacity_max":170,"capacity_consumed":149},{"time":"17:00","capacity_max":150,"capacity_consumed":149}]},{"id":"1005486","timings":[{"time":"9:00","capacity_max":230,"capacity_consumed":80},{"time":"12:00","capacity_max":230,"capacity_consumed":30},{"time":"14:00","capacity_max":150,"capacity_consumed":30},{"time":"17:00","capacity_max":170,"capacity_consumed":50}]}]}]},
{"_id":"6ad37228-81a9-47de-a394-d18d63cb2e06","name":"Windler Inc Cinema","email":"jbrewood6@geocities.com","phone":"812-257-9216","country":"United States","address":"340 Aberg Parkway","State":"Indiana","City":"Jeffersonville","Zip":"47134","lat":38.34,"long":-85.7,"showings":[{"movies":[{"id":"1000727","timings":[{"time":"9:00","capacity_max":230,"capacity_consumed":80},{"time":"12:00","capacity_max":250,"capacity_consumed":80},{"time":"14:00","capacity_max":150,"capacity_consumed":149}]},{"id":"1005486","timings":[{"time":"9:00","capacity_max":200,"capacity_consumed":80},{"time":"12:00","capacity_max":200,"capacity_consumed":80},{"time":"14:00","capacity_max":170,"capacity_consumed":80},{"time":"17:00","capacity_max":230,"capacity_consumed":50},{"time":"20:00","capacity_max":170,"capacity_consumed":50}]}]}]},
{"_id":"16e20fe5-532c-427d-bb46-297cb783cf32","name":"Lehner Group Cinema","email":"kpriscott7@edublogs.org","phone":"219-721-6208","country":"United States","address":"3679 Russell Avenue","State":"Indiana","City":"Gary","Zip":"46406","lat":41.6020598,"long":-87.4108352,"showings":[{"movies":[{"id":"1000727","timings":[{"time":"9:00","capacity_max":170,"capacity_consumed":50},{"time":"12:00","capacity_max":200,"capacity_consumed":50}]},{"id":"1005486","timings":[{"time":"9:00","capacity_max":150,"capacity_consumed":50},{"time":"12:00","capacity_max":230,"capacity_consumed":80},{"time":"14:00","capacity_max":170,"capacity_consumed":50},{"time":"17:00","capacity_max":230,"capacity_consumed":149},{"time":"20:00","capacity_max":250,"capacity_consumed":30}]},{"id":"1005799","timings":[{"time":"9:00","capacity_max":230,"capacity_consumed":80},{"time":"12:00","capacity_max":250,"capacity_consumed":149},{"time":"14:00","capacity_max":200,"capacity_consumed":149},{"time":"17:00","capacity_max":150,"capacity_consumed":80}]}]}]},
{"_id":"00e4a9a4-0ed8-4e9f-b3b5-5b90f9861d3d","name":"Haag, Bayer and Ruecker Cinema","email":"kmeneer8@usatoday.com","phone":"317-796-7470","country":"United States","address":"3693 American Ash Parkway","State":"Indiana","City":"Indianapolis","Zip":"46202","lat":39.7794767,"long":-86.1700894,"showings":[{"movies":[{"id":"1000727","timings":[{"time":"9:00","capacity_max":170,"capacity_consumed":50},{"time":"12:00","capacity_max":230,"capacity_consumed":30},{"time":"14:00","capacity_max":230,"capacity_consumed":149},{"time":"17:00","capacity_max":170,"capacity_consumed":149}]},{"id":"1005486","timings":[{"time":"9:00","capacity_max":250,"capacity_consumed":149},{"time":"12:00","capacity_max":200,"capacity_consumed":80}]}]}]},
{"_id":"cfe016ad-9fac-49bd-b8a4-aee20c9a41b6","name":"Beier Group Cinema","email":"ggratland9@surveymonkey.com","phone":"574-940-8559","country":"United States","address":"2512 Cardinal Park","State":"Indiana","City":"South Bend","Zip":"46620","lat":41.6919638,"long":-86.3754398,"showings":[{"movies":[{"id":"1000727","timings":[{"time":"9:00","capacity_max":230,"capacity_consumed":30},{"time":"12:00","capacity_max":170,"capacity_consumed":30},{"time":"14:00","capacity_max":200,"capacity_consumed":50},{"time":"17:00","capacity_max":170,"capacity_consumed":50}]}]}]},
{"_id":"8c034816-595c-4668-8d0f-2a7d05ee41db","name":"Donnelly-Barrows Cinema","email":"mtidbalda@theglobeandmail.com","phone":"574-132-8387","country":"United States","address":"227 Lake View Road","State":"Indiana","City":"South Bend","Zip":"46620","lat":41.6919638,"long":-86.3754398,"showings":[{"movies":[{"id":"1000727","timings":[{"time":"9:00","capacity_max":170,"capacity_consumed":30},{"time":"12:00","capacity_max":150,"capacity_consumed":80},{"time":"14:00","capacity_max":250,"capacity_consumed":50},{"time":"17:00","capacity_max":150,"capacity_consumed":30},{"time":"20:00","capacity_max":230,"capacity_consumed":149}]},{"id":"1005486","timings":[{"time":"9:00","capacity_max":200,"capacity_consumed":50},{"time":"12:00","capacity_max":230,"capacity_consumed":149},{"time":"14:00","capacity_max":150,"capacity_consumed":80},{"time":"17:00","capacity_max":250,"capacity_consumed":50},{"time":"20:00","capacity_max":200,"capacity_consumed":100}]},{"id":"1005799","timings":[{"time":"9:00","capacity_max":170,"capacity_consumed":50},{"time":"12:00","capacity_max":150,"capacity_consumed":50},{"time":"14:00","capacity_max":150,"capacity_consumed":30},{"time":"17:00","capacity_max":170,"capacity_consumed":30}]}]}]},
{"_id":"39526033-69fe-49c1-9b42-d5a4f9e213ef","name":"Shields LLC Cinema","email":"mpendallb@free.fr","phone":"317-574-4388","country":"United States","address":"26 Melvin Place","State":"Indiana","City":"Indianapolis","Zip":"46295","lat":39.67,"long":-86.19,"showings":[{"movies":[{"id":"1000727","timings":[{"time":"9:00","capacity_max":170,"capacity_consumed":149},{"time":"12:00","capacity_max":150,"capacity_consumed":50},{"time":"14:00","capacity_max":230,"capacity_consumed":30}]},{"id":"1005486","timings":[{"time":"9:00","capacity_max":170,"capacity_consumed":100},{"time":"12:00","capacity_max":170,"capacity_consumed":80},{"time":"14:00","capacity_max":230,"capacity_consumed":30}]},{"id":"1005799","timings":[{"time":"9:00","capacity_max":170,"capacity_consumed":100},{"time":"12:00","capacity_max":230,"capacity_consumed":100}]}]}]},
{"_id":"e9f8cfa6-bd4e-4e08-9701-cd04c97a0332","name":"Kshlerin Inc Cinema","email":"egodingc@usgs.gov","phone":"317-930-8995","country":"United States","address":"30628 Novick Terrace","State":"Indiana","City":"Indianapolis","Zip":"46254","lat":39.8494377,"long":-86.2666463,"showings":[{"movies":[{"id":"1000727","timings":[{"time":"9:00","capacity_max":230,"capacity_consumed":149},{"time":"12:00","capacity_max":230,"capacity_consumed":100}]},{"id":"1005486","timings":[{"time":"9:00","capacity_max":170,"capacity_consumed":80},{"time":"12:00","capacity_max":150,"capacity_consumed":149},{"time":"14:00","capacity_max":150,"capacity_consumed":100},{"time":"17:00","capacity_max":200,"capacity_consumed":80},{"time":"20:00","capacity_max":150,"capacity_consumed":30}]}]}]},
{"_id":"9e38e03b-0379-4228-9a29-b59ee5f18107","name":"Buckridge, Kuhn and Hamill Cinema","email":"nclaced@apache.org","phone":"812-569-8057","country":"United States","address":"1958 Ridgeway Lane","State":"Indiana","City":"Evansville","Zip":"47737","lat":37.97,"long":-87.5699999,"showings":[{"movies":[{"id":"1000727","timings":[{"time":"9:00","capacity_max":170,"capacity_consumed":80},{"time":"12:00","capacity_max":230,"capacity_consumed":80},{"time":"14:00","capacity_max":250,"capacity_consumed":149},{"time":"17:00","capacity_max":230,"capacity_consumed":50}]},{"id":"1005486","timings":[{"time":"9:00","capacity_max":170,"capacity_consumed":100},{"time":"12:00","capacity_max":230,"capacity_consumed":80},{"time":"14:00","capacity_max":150,"capacity_consumed":80},{"time":"17:00","capacity_max":230,"capacity_consumed":50}]}]}]},
{"_id":"896c46ec-1ca8-4dbc-87bf-538bb53a0cfa","name":"Harris, Schoen and Champlin Cinema","email":"swatshame@pagesperso-orange.fr","phone":"260-800-0366","country":"United States","address":"8 Hudson Terrace","State":"Indiana","City":"Fort Wayne","Zip":"46896","lat":41.01,"long":-85.06,"showings":[{"movies":[{"id":"1000727","timings":[{"time":"9:00","capacity_max":250,"capacity_consumed":100},{"time":"12:00","capacity_max":170,"capacity_consumed":100},{"time":"14:00","capacity_max":170,"capacity_consumed":100}]},{"id":"1005486","timings":[{"time":"9:00","capacity_max":200,"capacity_consumed":149},{"time":"12:00","capacity_max":250,"capacity_consumed":100},{"time":"14:00","capacity_max":150,"capacity_consumed":30},{"time":"17:00","capacity_max":250,"capacity_consumed":149}]},{"id":"1005799","timings":[{"time":"9:00","capacity_max":250,"capacity_consumed":50},{"time":"12:00","capacity_max":170,"capacity_consumed":50}]}]}]},
{"_id":"ccb87ee3-d567-4d1c-a85d-e50f2ee6700b","name":"Stoltenberg, Mosciski and DuBuque Cinema","email":"bapplegatef@omniture.com","phone":"260-388-4048","country":"United States","address":"45 Farmco Lane","State":"Indiana","City":"Fort Wayne","Zip":"46896","lat":41.01,"long":-85.06,"showings":[{"movies":[{"id":"1000727","timings":[{"time":"9:00","capacity_max":250,"capacity_consumed":30},{"time":"12:00","capacity_max":150,"capacity_consumed":30},{"time":"14:00","capacity_max":250,"capacity_consumed":149},{"time":"17:00","capacity_max":230,"capacity_consumed":100}]},{"id":"1005486","timings":[{"time":"9:00","capacity_max":250,"capacity_consumed":80},{"time":"12:00","capacity_max":150,"capacity_consumed":149}]},{"id":"1005799","timings":[{"time":"9:00","capacity_max":170,"capacity_consumed":149},{"time":"12:00","capacity_max":200,"capacity_consumed":100},{"time":"14:00","capacity_max":200,"capacity_consumed":100},{"time":"17:00","capacity_max":150,"capacity_consumed":80}]}]}]},
{"_id":"c8c84c0c-f01d-47c3-9a38-21480ace62ef","name":"Kerluke, Krajcik and Denesik Cinema","email":"wpepperdg@deviantart.com","phone":"317-458-4740","country":"United States","address":"42039 Talmadge Circle","State":"Indiana","City":"Indianapolis","Zip":"46254","lat":39.8494377,"long":-86.2666463,"showings":[{"movies":[{"id":"1000727","timings":[{"time":"9:00","capacity_max":150,"capacity_consumed":149},{"time":"12:00","capacity_max":200,"capacity_consumed":100},{"time":"14:00","capacity_max":150,"capacity_consumed":30},{"time":"17:00","capacity_max":230,"capacity_consumed":100},{"time":"20:00","capacity_max":150,"capacity_consumed":80}]},{"id":"1005486","timings":[{"time":"9:00","capacity_max":200,"capacity_consumed":50},{"time":"12:00","capacity_max":200,"capacity_consumed":100},{"time":"14:00","capacity_max":230,"capacity_consumed":50}]},{"id":"1005799","timings":[{"time":"9:00","capacity_max":230,"capacity_consumed":100},{"time":"12:00","capacity_max":170,"capacity_consumed":80},{"time":"14:00","capacity_max":230,"capacity_consumed":50},{"time":"17:00","capacity_max":150,"capacity_consumed":80}]}]}]},
{"_id":"e374bb19-963e-498b-a1a1-0aa46297ed46","name":"Stanton-Mills Cinema","email":"fgladdorh@dell.com","phone":"260-725-6660","country":"United States","address":"3837 Buell Center","State":"Indiana","City":"Fort Wayne","Zip":"46852","lat":41.07,"long":-85.14,"showings":[{"movies":[{"id":"1000727","timings":[{"time":"9:00","capacity_max":200,"capacity_consumed":149},{"time":"12:00","capacity_max":250,"capacity_consumed":30},{"time":"14:00","capacity_max":170,"capacity_consumed":50},{"time":"17:00","capacity_max":250,"capacity_consumed":149}]}]}]},
{"_id":"05edd8a8-b446-4263-a0b6-f291ba797d78","name":"MacGyver, Hane and Jacobi Cinema","email":"slabrouei@simplemachines.org","phone":"812-674-1109","country":"United States","address":"229 Di Loreto Road","State":"Indiana","City":"Terre Haute","Zip":"47812","lat":39.4596137,"long":-87.3478243,"showings":[{"movies":[{"id":"1000727","timings":[{"time":"9:00","capacity_max":200,"capacity_consumed":80},{"time":"12:00","capacity_max":230,"capacity_consumed":30}]}]}]},
{"_id":"b6c94430-7deb-4dd1-9b67-a21e2b2698da","name":"Nikolaus Inc Cinema","email":"nsprostonj@parallels.com","phone":"574-220-3083","country":"United States","address":"54 Burning Wood Court","State":"Indiana","City":"South Bend","Zip":"46620","lat":41.6919638,"long":-86.3754398,"showings":[{"movies":[{"id":"1000727","timings":[{"time":"9:00","capacity_max":200,"capacity_consumed":50},{"time":"12:00","capacity_max":150,"capacity_consumed":100},{"time":"14:00","capacity_max":150,"capacity_consumed":30},{"time":"17:00","capacity_max":230,"capacity_consumed":80},{"time":"20:00","capacity_max":230,"capacity_consumed":50}]}]}]},
{"_id":"9aa7574e-b19e-4518-9bbd-c97a23eda8d4","name":"Mayer and Sons Cinema","email":"drenboldk@homestead.com","phone":"260-402-9468","country":"United States","address":"62797 Novick Crossing","State":"Indiana","City":"Fort Wayne","Zip":"46896","lat":41.01,"long":-85.06,"showings":[{"movies":[{"id":"1000727","timings":[{"time":"9:00","capacity_max":230,"capacity_consumed":149},{"time":"12:00","capacity_max":170,"capacity_consumed":149},{"time":"14:00","capacity_max":200,"capacity_consumed":80},{"time":"17:00","capacity_max":230,"capacity_consumed":30}]}]}]},
{"_id":"fed9b30c-b936-4316-8b62-052ffb81f760","name":"Friesen Inc Cinema","email":"hsallnowl@hp.com","phone":"765-640-6295","country":"United States","address":"4697 Corry Point","State":"Indiana","City":"Indianapolis","Zip":"46202","lat":39.7794767,"long":-86.1700894,"showings":[{"movies":[{"id":"1000727","timings":[{"time":"9:00","capacity_max":150,"capacity_consumed":149},{"time":"12:00","capacity_max":150,"capacity_consumed":50},{"time":"14:00","capacity_max":200,"capacity_consumed":149}]},{"id":"1005486","timings":[{"time":"9:00","capacity_max":200,"capacity_consumed":50},{"time":"12:00","capacity_max":250,"capacity_consumed":50}]}]}]},
{"_id":"8c6506d7-39a4-4d9d-a2c4-70b7df9b46f8","name":"Oberbrunner, Kihn and Littel Cinema","email":"ikordam@chronoengine.com","phone":"260-170-4620","country":"United States","address":"90098 Carpenter Trail","State":"Indiana","City":"Fort Wayne","Zip":"46852","lat":41.07,"long":-85.14,"showings":[{"movies":[{"id":"1000727","timings":[{"time":"9:00","capacity_max":150,"capacity_consumed":149},{"time":"12:00","capacity_max":230,"capacity_consumed":149},{"time":"14:00","capacity_max":250,"capacity_consumed":30},{"time":"17:00","capacity_max":150,"capacity_consumed":30},{"time":"20:00","capacity_max":170,"capacity_consumed":50}]},{"id":"1005486","timings":[{"time":"9:00","capacity_max":230,"capacity_consumed":50},{"time":"12:00","capacity_max":150,"capacity_consumed":149},{"time":"14:00","capacity_max":230,"capacity_consumed":149},{"time":"17:00","capacity_max":230,"capacity_consumed":149},{"time":"20:00","capacity_max":170,"capacity_consumed":30}]}]}]},
{"_id":"c46bab57-4fc2-4a06-bf85-6cf98a5b908b","name":"Howell, Weber and Brakus Cinema","email":"epantlinn@pinterest.com","phone":"219-961-6543","country":"United States","address":"96 Farragut Lane","State":"Indiana","City":"Gary","Zip":"46406","lat":41.6020598,"long":-87.4108352,"showings":[{"movies":[{"id":"1000727","timings":[{"time":"9:00","capacity_max":170,"capacity_consumed":30},{"time":"12:00","capacity_max":200,"capacity_consumed":100},{"time":"14:00","capacity_max":250,"capacity_consumed":149},{"time":"17:00","capacity_max":170,"capacity_consumed":149}]},{"id":"1005486","timings":[{"time":"9:00","capacity_max":200,"capacity_consumed":80},{"time":"12:00","capacity_max":250,"capacity_consumed":100}]}]}]},
{"_id":"08d203e7-daf4-4848-81b3-bb5ed9500115","name":"Murazik, Sanford and Corwin Cinema","email":"bhenricssono@mashable.com","phone":"317-497-8356","country":"United States","address":"6049 7th Lane","State":"Indiana","City":"Indianapolis","Zip":"46254","lat":39.8494377,"long":-86.2666463,"showings":[{"movies":[{"id":"1000727","timings":[{"time":"9:00","capacity_max":230,"capacity_consumed":149},{"time":"12:00","capacity_max":230,"capacity_consumed":30}]}]}]},
{"_id":"25e05b24-9eb3-4cb0-9c54-8a5bc8d8dd37","name":"Sawayn, Wisoky and Bailey Cinema","email":"caldwichp@oakley.com","phone":"317-582-9817","country":"United States","address":"62448 Waywood Way","State":"Indiana","City":"Indianapolis","Zip":"46295","lat":39.67,"long":-86.19,"showings":[{"movies":[{"id":"1000727","timings":[{"time":"9:00","capacity_max":150,"capacity_consumed":149},{"time":"12:00","capacity_max":170,"capacity_consumed":50},{"time":"14:00","capacity_max":200,"capacity_consumed":149},{"time":"17:00","capacity_max":230,"capacity_consumed":30}]}]}]},
{"_id":"b202be8c-8e0a-41a9-a482-af96cbed06d0","name":"Rohan, Tillman and Wunsch Cinema","email":"rottewillq@blogs.com","phone":"260-894-5186","country":"United States","address":"59 Moose Way","State":"Indiana","City":"Fort Wayne","Zip":"46857","lat":41.07,"long":-85.14,"showings":[{"movies":[{"id":"1000727","timings":[{"time":"9:00","capacity_max":150,"capacity_consumed":50},{"time":"12:00","capacity_max":200,"capacity_consumed":50}]},{"id":"1005486","timings":[{"time":"9:00","capacity_max":250,"capacity_consumed":100},{"time":"12:00","capacity_max":250,"capacity_consumed":80},{"time":"14:00","capacity_max":230,"capacity_consumed":149}]},{"id":"1005799","timings":[{"time":"9:00","capacity_max":250,"capacity_consumed":100},{"time":"12:00","capacity_max":200,"capacity_consumed":30},{"time":"14:00","capacity_max":230,"capacity_consumed":80},{"time":"17:00","capacity_max":150,"capacity_consumed":149},{"time":"20:00","capacity_max":170,"capacity_consumed":80}]}]}]},
{"_id":"dffa4bc0-efb1-4322-90b9-6e3f8c8e9e7b","name":"Hand-Wiegand Cinema","email":"jchipchaser@google.cn","phone":"765-707-2187","country":"United States","address":"85444 Granby Circle","State":"Indiana","City":"Indianapolis","Zip":"46202","lat":39.7794767,"long":-86.1700894,"showings":[{"movies":[{"id":"1000727","timings":[{"time":"9:00","capacity_max":170,"capacity_consumed":149},{"time":"12:00","capacity_max":150,"capacity_consumed":30},{"time":"14:00","capacity_max":170,"capacity_consumed":100}]}]}]},
{"_id":"44b02cfd-7705-413b-9a4e-f141cf2b7080","name":"Funk, Treutel and Crist Cinema","email":"fscawns@dyndns.org","phone":"219-737-2443","country":"United States","address":"826 Muir Crossing","State":"Indiana","City":"Gary","Zip":"46406","lat":41.6020598,"long":-87.4108352,"showings":[{"movies":[{"id":"1000727","timings":[{"time":"9:00","capacity_max":150,"capacity_consumed":80},{"time":"12:00","capacity_max":150,"capacity_consumed":30},{"time":"14:00","capacity_max":250,"capacity_consumed":30},{"time":"17:00","capacity_max":250,"capacity_consumed":149},{"time":"20:00","capacity_max":230,"capacity_consumed":149}]},{"id":"1005486","timings":[{"time":"9:00","capacity_max":150,"capacity_consumed":50},{"time":"12:00","capacity_max":230,"capacity_consumed":149},{"time":"14:00","capacity_max":150,"capacity_consumed":149},{"time":"17:00","capacity_max":230,"capacity_consumed":30},{"time":"20:00","capacity_max":250,"capacity_consumed":30}]},{"id":"1005799","timings":[{"time":"9:00","capacity_max":150,"capacity_consumed":50},{"time":"12:00","capacity_max":170,"capacity_consumed":149},{"time":"14:00","capacity_max":200,"capacity_consumed":50},{"time":"17:00","capacity_max":250,"capacity_consumed":80},{"time":"20:00","capacity_max":250,"capacity_consumed":50}]}]}]},
{"_id":"7ec30cb2-57c3-4888-a335-259022a85ac4","name":"Corwin, Cronin and Trantow Cinema","email":"visakovitcht@businesswire.com","phone":"812-171-8423","country":"United States","address":"63 Maryland Point","State":"Indiana","City":"Evansville","Zip":"47725","lat":37.9715592,"long":-87.5710898,"showings":[{"movies":[{"id":"1000727","timings":[{"time":"9:00","capacity_max":200,"capacity_consumed":149},{"time":"12:00","capacity_max":250,"capacity_consumed":50},{"time":"14:00","capacity_max":170,"capacity_consumed":80}]},{"id":"1005486","timings":[{"time":"9:00","capacity_max":170,"capacity_consumed":149},{"time":"12:00","capacity_max":170,"capacity_consumed":149},{"time":"14:00","capacity_max":230,"capacity_consumed":30}]}]}]},
{"_id":"ea31d9f4-951d-4dc4-92a4-e3e37aba646d","name":"Becker, Lesch and Buckridge Cinema","email":"rtomkissu@google.com","phone":"574-199-8827","country":"United States","address":"5055 Burrows Point","State":"Indiana","City":"South Bend","Zip":"46620","lat":41.6919638,"long":-86.3754398,"showings":[{"movies":[{"id":"1000727","timings":[{"time":"9:00","capacity_max":230,"capacity_consumed":80},{"time":"12:00","capacity_max":200,"capacity_consumed":149}]}]}]},
{"_id":"ba8d7ad8-30d3-4306-85a7-7244ee3deff4","name":"Hessel LLC Cinema","email":"qbancev@sbwire.com","phone":"812-292-0699","country":"United States","address":"30559 Stuart Point","State":"Indiana","City":"Evansville","Zip":"47747","lat":38.03,"long":-87.58,"showings":[{"movies":[{"id":"1000727","timings":[{"time":"9:00","capacity_max":250,"capacity_consumed":80},{"time":"12:00","capacity_max":200,"capacity_consumed":80},{"time":"14:00","capacity_max":170,"capacity_consumed":30}]},{"id":"1005486","timings":[{"time":"9:00","capacity_max":150,"capacity_consumed":50},{"time":"12:00","capacity_max":230,"capacity_consumed":30},{"time":"14:00","capacity_max":150,"capacity_consumed":50}]},{"id":"1005799","timings":[{"time":"9:00","capacity_max":170,"capacity_consumed":100},{"time":"12:00","capacity_max":200,"capacity_consumed":30},{"time":"14:00","capacity_max":230,"capacity_consumed":100},{"time":"17:00","capacity_max":170,"capacity_consumed":100},{"time":"20:00","capacity_max":170,"capacity_consumed":149}]}]}]},
{"_id":"7409b39f-eb7e-40b2-b0dc-5f934703967e","name":"Lesch, Roberts and Herman Cinema","email":"dluttgertw@google.co.jp","phone":"812-835-5791","country":"United States","address":"6045 Kedzie Hill","State":"Indiana","City":"Evansville","Zip":"47732","lat":37.97,"long":-87.5699999,"showings":[{"movies":[{"id":"1000727","timings":[{"time":"9:00","capacity_max":200,"capacity_consumed":149},{"time":"12:00","capacity_max":200,"capacity_consumed":80},{"time":"14:00","capacity_max":200,"capacity_consumed":80},{"time":"17:00","capacity_max":230,"capacity_consumed":30}]}]}]},
{"_id":"5eddadc4-7a08-453e-9c66-117cf92bf323","name":"Lehner, Willms and Wilderman Cinema","email":"rhudelx@nymag.com","phone":"812-511-1238","country":"United States","address":"73 3rd Terrace","State":"Indiana","City":"Terre Haute","Zip":"47812","lat":39.4596137,"long":-87.3478243,"showings":[{"movies":[{"id":"1000727","timings":[{"time":"9:00","capacity_max":250,"capacity_consumed":149},{"time":"12:00","capacity_max":200,"capacity_consumed":30},{"time":"14:00","capacity_max":230,"capacity_consumed":50},{"time":"17:00","capacity_max":250,"capacity_consumed":30},{"time":"20:00","capacity_max":200,"capacity_consumed":149}]},{"id":"1005486","timings":[{"time":"9:00","capacity_max":230,"capacity_consumed":100},{"time":"12:00","capacity_max":200,"capacity_consumed":50},{"time":"14:00","capacity_max":200,"capacity_consumed":30},{"time":"17:00","capacity_max":200,"capacity_consumed":80},{"time":"20:00","capacity_max":170,"capacity_consumed":80}]},{"id":"1005799","timings":[{"time":"9:00","capacity_max":200,"capacity_consumed":100},{"time":"12:00","capacity_max":230,"capacity_consumed":149},{"time":"14:00","capacity_max":250,"capacity_consumed":149}]}]}]},
{"_id":"667bbfea-6ed4-4c95-a1d2-23f3b95be592","name":"Stamm and Sons Cinema","email":"msanchizy@nps.gov","phone":"260-790-1936","country":"United States","address":"33962 School Terrace","State":"Indiana","City":"Fort Wayne","Zip":"46857","lat":41.07,"long":-85.14,"showings":[{"movies":[{"id":"1000727","timings":[{"time":"9:00","capacity_max":250,"capacity_consumed":149},{"time":"12:00","capacity_max":230,"capacity_consumed":50},{"time":"14:00","capacity_max":150,"capacity_consumed":30},{"time":"17:00","capacity_max":170,"capacity_consumed":100}]},{"id":"1005486","timings":[{"time":"9:00","capacity_max":150,"capacity_consumed":50},{"time":"12:00","capacity_max":150,"capacity_consumed":100},{"time":"14:00","capacity_max":150,"capacity_consumed":50},{"time":"17:00","capacity_max":230,"capacity_consumed":149}]}]}]},
{"_id":"a3d036c9-0c30-4a7d-a31b-b111bcb42a19","name":"Zieme, Jakubowski and Huels Cinema","email":"jthunderchiefz@umich.edu","phone":"317-718-7617","country":"United States","address":"5459 Sunnyside Terrace","State":"Indiana","City":"Indianapolis","Zip":"46202","lat":39.7794767,"long":-86.1700894,"showings":[{"movies":[{"id":"1000727","timings":[{"time":"9:00","capacity_max":250,"capacity_consumed":50},{"time":"12:00","capacity_max":250,"capacity_consumed":30},{"time":"14:00","capacity_max":230,"capacity_consumed":50},{"time":"17:00","capacity_max":200,"capacity_consumed":30}]},{"id":"1005486","timings":[{"time":"9:00","capacity_max":200,"capacity_consumed":30},{"time":"12:00","capacity_max":250,"capacity_consumed":50},{"time":"14:00","capacity_max":170,"capacity_consumed":80}]},{"id":"1005799","timings":[{"time":"9:00","capacity_max":150,"capacity_consumed":80},{"time":"12:00","capacity_max":170,"capacity_consumed":50},{"time":"14:00","capacity_max":170,"capacity_consumed":149},{"time":"17:00","capacity_max":230,"capacity_consumed":30}]}]}]},
{"_id":"34de933f-2f94-4090-9a95-4ccb34e0b60d","name":"Swaniawski-Deckow Cinema","email":"mstot10@mashable.com","phone":"812-181-3302","country":"United States","address":"238 Lunder Court","State":"Indiana","City":"Evansville","Zip":"47719","lat":38.0515795,"long":-87.6876112,"showings":[{"movies":[{"id":"1000727","timings":[{"time":"9:00","capacity_max":200,"capacity_consumed":100},{"time":"12:00","capacity_max":230,"capacity_consumed":149},{"time":"14:00","capacity_max":200,"capacity_consumed":30},{"time":"17:00","capacity_max":150,"capacity_consumed":100}]},{"id":"1005486","timings":[{"time":"9:00","capacity_max":200,"capacity_consumed":80},{"time":"12:00","capacity_max":200,"capacity_consumed":100},{"time":"14:00","capacity_max":250,"capacity_consumed":80}]}]}]},
{"_id":"e83bf89c-5c25-44c3-b321-f9a9ce9d7974","name":"Lehner-Herman Cinema","email":"nstoker11@buzzfeed.com","phone":"317-122-6670","country":"United States","address":"59925 Killdeer Street","State":"Indiana","City":"Indianapolis","Zip":"46295","lat":39.67,"long":-86.19,"showings":[{"movies":[{"id":"1000727","timings":[{"time":"9:00","capacity_max":170,"capacity_consumed":30},{"time":"12:00","capacity_max":170,"capacity_consumed":80},{"time":"14:00","capacity_max":230,"capacity_consumed":100},{"time":"17:00","capacity_max":230,"capacity_consumed":80}]},{"id":"1005486","timings":[{"time":"9:00","capacity_max":150,"capacity_consumed":149},{"time":"12:00","capacity_max":170,"capacity_consumed":100},{"time":"14:00","capacity_max":250,"capacity_consumed":50}]},{"id":"1005799","timings":[{"time":"9:00","capacity_max":250,"capacity_consumed":149},{"time":"12:00","capacity_max":170,"capacity_consumed":100}]}]}]},
{"_id":"a1488c05-fee1-498c-84f2-ea0fb924315f","name":"Littel-Pacocha Cinema","email":"edauby12@newyorker.com","phone":"260-573-1854","country":"United States","address":"4 Packers Junction","State":"Indiana","City":"Fort Wayne","Zip":"46852","lat":41.07,"long":-85.14,"showings":[{"movies":[{"id":"1000727","timings":[{"time":"9:00","capacity_max":250,"capacity_consumed":50},{"time":"12:00","capacity_max":150,"capacity_consumed":149},{"time":"14:00","capacity_max":250,"capacity_consumed":149},{"time":"17:00","capacity_max":200,"capacity_consumed":100},{"time":"20:00","capacity_max":250,"capacity_consumed":80}]},{"id":"1005486","timings":[{"time":"9:00","capacity_max":230,"capacity_consumed":149},{"time":"12:00","capacity_max":170,"capacity_consumed":149},{"time":"14:00","capacity_max":230,"capacity_consumed":149}]}]}]},
{"_id":"9aed5b1a-23ef-4bfa-8a11-84f89dee9946","name":"Lowe Group Cinema","email":"lspadeck13@facebook.com","phone":"812-281-6872","country":"United States","address":"9951 Briar Crest Parkway","State":"Indiana","City":"Terre Haute","Zip":"47812","lat":39.4596137,"long":-87.3478243,"showings":[{"movies":[{"id":"1000727","timings":[{"time":"9:00","capacity_max":200,"capacity_consumed":50},{"time":"12:00","capacity_max":170,"capacity_consumed":100}]},{"id":"1005486","timings":[{"time":"9:00","capacity_max":230,"capacity_consumed":100},{"time":"12:00","capacity_max":230,"capacity_consumed":50},{"time":"14:00","capacity_max":250,"capacity_consumed":80},{"time":"17:00","capacity_max":200,"capacity_consumed":30},{"time":"20:00","capacity_max":250,"capacity_consumed":100}]},{"id":"1005799","timings":[{"time":"9:00","capacity_max":170,"capacity_consumed":50},{"time":"12:00","capacity_max":250,"capacity_consumed":50}]}]}]},
{"_id":"bced0968-ccb8-45a7-8a9d-8d2011c28ead","name":"Metz LLC Cinema","email":"alattie14@nytimes.com","phone":"812-762-9406","country":"United States","address":"661 Fuller Place","State":"Indiana","City":"Jeffersonville","Zip":"47134","lat":38.34,"long":-85.7,"showings":[{"movies":[{"id":"1000727","timings":[{"time":"9:00","capacity_max":150,"capacity_consumed":80},{"time":"12:00","capacity_max":170,"capacity_consumed":80}]},{"id":"1005486","timings":[{"time":"9:00","capacity_max":230,"capacity_consumed":100},{"time":"12:00","capacity_max":250,"capacity_consumed":149},{"time":"14:00","capacity_max":200,"capacity_consumed":50}]}]}]},
{"_id":"f8fe8ed6-a2bf-4df9-b6a2-3afcbee1fc0f","name":"Strosin, Mayer and Bernhard Cinema","email":"motterwell15@techcrunch.com","phone":"812-959-5990","country":"United States","address":"108 Cottonwood Hill","State":"Indiana","City":"Evansville","Zip":"47725","lat":37.9715592,"long":-87.5710898,"showings":[{"movies":[{"id":"1000727","timings":[{"time":"9:00","capacity_max":230,"capacity_consumed":50},{"time":"12:00","capacity_max":170,"capacity_consumed":80},{"time":"14:00","capacity_max":200,"capacity_consumed":100}]}]}]},
{"_id":"fb89a74b-72cd-4890-ba69-b590f33e44ee","name":"Bashirian Group Cinema","email":"cpinch16@nyu.edu","phone":"260-382-5715","country":"United States","address":"59 Bunting Crossing","State":"Indiana","City":"Fort Wayne","Zip":"46862","lat":41.07,"long":-85.14,"showings":[{"movies":[{"id":"1000727","timings":[{"time":"9:00","capacity_max":200,"capacity_consumed":149},{"time":"12:00","capacity_max":170,"capacity_consumed":50}]}]}]},
{"_id":"9fe72b11-87bf-4040-8326-778b5ec030fd","name":"Wiegand LLC Cinema","email":"ofoston17@disqus.com","phone":"812-578-8267","country":"United States","address":"3424 Anzinger Alley","State":"Indiana","City":"Evansville","Zip":"47732","lat":37.97,"long":-87.5699999,"showings":[{"movies":[{"id":"1000727","timings":[{"time":"9:00","capacity_max":200,"capacity_consumed":80},{"time":"12:00","capacity_max":200,"capacity_consumed":50},{"time":"14:00","capacity_max":250,"capacity_consumed":80},{"time":"17:00","capacity_max":230,"capacity_consumed":149},{"time":"20:00","capacity_max":150,"capacity_consumed":149}]},{"id":"1005486","timings":[{"time":"9:00","capacity_max":170,"capacity_consumed":80},{"time":"12:00","capacity_max":250,"capacity_consumed":100},{"time":"14:00","capacity_max":230,"capacity_consumed":50},{"time":"17:00","capacity_max":150,"capacity_consumed":100},{"time":"20:00","capacity_max":250,"capacity_consumed":50}]}]}]},
{"_id":"7f4fc0d7-2d71-483e-b509-1c3eea37bbc8","name":"Kerluke, Muller and Champlin Cinema","email":"agothliff18@cbsnews.com","phone":"260-931-4202","country":"United States","address":"561 Hanson Park","State":"Indiana","City":"Fort Wayne","Zip":"46852","lat":41.07,"long":-85.14,"showings":[{"movies":[{"id":"1000727","timings":[{"time":"9:00","capacity_max":170,"capacity_consumed":80},{"time":"12:00","capacity_max":200,"capacity_consumed":100},{"time":"14:00","capacity_max":250,"capacity_consumed":30}]},{"id":"1005486","timings":[{"time":"9:00","capacity_max":250,"capacity_consumed":149},{"time":"12:00","capacity_max":170,"capacity_consumed":50}]},{"id":"1005799","timings":[{"time":"9:00","capacity_max":200,"capacity_consumed":100},{"time":"12:00","capacity_max":250,"capacity_consumed":80}]}]}]},
{"_id":"da725d6e-e004-4a8a-af64-b6b338a6bc26","name":"Waters and Sons Cinema","email":"pmacgee19@issuu.com","phone":"260-331-0864","country":"United States","address":"95274 Cascade Road","State":"Indiana","City":"Fort Wayne","Zip":"46896","lat":41.01,"long":-85.06,"showings":[{"movies":[{"id":"1000727","timings":[{"time":"9:00","capacity_max":170,"capacity_consumed":30},{"time":"12:00","capacity_max":230,"capacity_consumed":30},{"time":"14:00","capacity_max":200,"capacity_consumed":30}]},{"id":"1005486","timings":[{"time":"9:00","capacity_max":230,"capacity_consumed":80},{"time":"12:00","capacity_max":200,"capacity_consumed":80},{"time":"14:00","capacity_max":170,"capacity_consumed":149},{"time":"17:00","capacity_max":200,"capacity_consumed":149}]},{"id":"1005799","timings":[{"time":"9:00","capacity_max":230,"capacity_consumed":30},{"time":"12:00","capacity_max":250,"capacity_consumed":80},{"time":"14:00","capacity_max":150,"capacity_consumed":149},{"time":"17:00","capacity_max":200,"capacity_consumed":149},{"time":"20:00","capacity_max":150,"capacity_consumed":149}]}]}]},
{"_id":"8322ef2c-719e-4920-9d28-6707a8bd8167","name":"Barton and Sons Cinema","email":"pgorusso1a@globo.com","phone":"317-617-8663","country":"United States","address":"2272 Menomonie Circle","State":"Indiana","City":"Indianapolis","Zip":"46295","lat":39.67,"long":-86.19,"showings":[{"movies":[{"id":"1000727","timings":[{"time":"9:00","capacity_max":170,"capacity_consumed":149},{"time":"12:00","capacity_max":170,"capacity_consumed":100},{"time":"14:00","capacity_max":200,"capacity_consumed":149}]},{"id":"1005486","timings":[{"time":"9:00","capacity_max":150,"capacity_consumed":50},{"time":"12:00","capacity_max":230,"capacity_consumed":80},{"time":"14:00","capacity_max":250,"capacity_consumed":50},{"time":"17:00","capacity_max":150,"capacity_consumed":50},{"time":"20:00","capacity_max":200,"capacity_consumed":50}]},{"id":"1005799","timings":[{"time":"9:00","capacity_max":200,"capacity_consumed":80},{"time":"12:00","capacity_max":230,"capacity_consumed":80},{"time":"14:00","capacity_max":150,"capacity_consumed":149},{"time":"17:00","capacity_max":150,"capacity_consumed":50},{"time":"20:00","capacity_max":170,"capacity_consumed":149}]}]}]},
{"_id":"2bad0916-5d26-46ee-a458-454ef13666ad","name":"Baumbach-Schuster Cinema","email":"mfayre1b@drupal.org","phone":"260-144-2520","country":"United States","address":"0 Village Hill","State":"Indiana","City":"Fort Wayne","Zip":"46896","lat":41.01,"long":-85.06,"showings":[{"movies":[{"id":"1000727","timings":[{"time":"9:00","capacity_max":250,"capacity_consumed":149},{"time":"12:00","capacity_max":250,"capacity_consumed":30},{"time":"14:00","capacity_max":170,"capacity_consumed":100}]}]}]},
{"_id":"e8d46e7e-6a1d-4f08-b5ca-03c4e8cd06e2","name":"Barton and Sons Cinema","email":"wbeedon1c@cargocollective.com","phone":"812-115-2686","country":"United States","address":"2464 Tennyson Plaza","State":"Indiana","City":"Evansville","Zip":"47725","lat":37.9715592,"long":-87.5710898,"showings":[{"movies":[{"id":"1000727","timings":[{"time":"9:00","capacity_max":250,"capacity_consumed":80},{"time":"12:00","capacity_max":170,"capacity_consumed":149},{"time":"14:00","capacity_max":170,"capacity_consumed":30},{"time":"17:00","capacity_max":250,"capacity_consumed":30},{"time":"20:00","capacity_max":150,"capacity_consumed":50}]},{"id":"1005486","timings":[{"time":"9:00","capacity_max":200,"capacity_consumed":80},{"time":"12:00","capacity_max":230,"capacity_consumed":30}]}]}]},
{"_id":"f1ce09bf-8c72-4994-bee6-ab69d6d6c6a4","name":"Anderson LLC Cinema","email":"bshallo1d@smugmug.com","phone":"317-474-8539","country":"United States","address":"92 Union Drive","State":"Indiana","City":"Indianapolis","Zip":"46254","lat":39.8494377,"long":-86.2666463,"showings":[{"movies":[{"id":"1000727","timings":[{"time":"9:00","capacity_max":170,"capacity_consumed":80},{"time":"12:00","capacity_max":170,"capacity_consumed":100}]},{"id":"1005486","timings":[{"time":"9:00","capacity_max":230,"capacity_consumed":50},{"time":"12:00","capacity_max":250,"capacity_consumed":30},{"time":"14:00","capacity_max":230,"capacity_consumed":149},{"time":"17:00","capacity_max":230,"capacity_consumed":80}]}]}]},
{"_id":"05388c73-a3c3-4ece-9ca4-0b95f0032a66","name":"Lehner-Rogahn Cinema","email":"ffitchew1e@bloglovin.com","phone":"260-563-8589","country":"United States","address":"515 Bultman Lane","State":"Indiana","City":"Fort Wayne","Zip":"46862","lat":41.07,"long":-85.14,"showings":[{"movies":[{"id":"1000727","timings":[{"time":"9:00","capacity_max":150,"capacity_consumed":80},{"time":"12:00","capacity_max":170,"capacity_consumed":80},{"time":"14:00","capacity_max":150,"capacity_consumed":80},{"time":"17:00","capacity_max":170,"capacity_consumed":100},{"time":"20:00","capacity_max":150,"capacity_consumed":80}]}]}]},
{"_id":"382d1419-4e0d-4563-a5c7-e5d4865cf6df","name":"Osinski Group Cinema","email":"ibarbour1f@independent.co.uk","phone":"219-516-9962","country":"United States","address":"88791 Old Shore Avenue","State":"Indiana","City":"Gary","Zip":"46406","lat":41.6020598,"long":-87.4108352,"showings":[{"movies":[{"id":"1000727","timings":[{"time":"9:00","capacity_max":150,"capacity_consumed":50},{"time":"12:00","capacity_max":170,"capacity_consumed":80},{"time":"14:00","capacity_max":150,"capacity_consumed":149}]}]}]},
{"_id":"94232ba1-57ad-4a22-8d8f-19d4c9ce40be","name":"Predovic LLC Cinema","email":"avasquez1g@vimeo.com","phone":"260-358-2606","country":"United States","address":"87115 Hanson Pass","State":"Indiana","City":"Fort Wayne","Zip":"46862","lat":41.07,"long":-85.14,"showings":[{"movies":[{"id":"1000727","timings":[{"time":"9:00","capacity_max":230,"capacity_consumed":100},{"time":"12:00","capacity_max":230,"capacity_consumed":100},{"time":"14:00","capacity_max":230,"capacity_consumed":30},{"time":"17:00","capacity_max":250,"capacity_consumed":80},{"time":"20:00","capacity_max":170,"capacity_consumed":149}]},{"id":"1005486","timings":[{"time":"9:00","capacity_max":250,"capacity_consumed":149},{"time":"12:00","capacity_max":150,"capacity_consumed":100}]},{"id":"1005799","timings":[{"time":"9:00","capacity_max":250,"capacity_consumed":30},{"time":"12:00","capacity_max":250,"capacity_consumed":50}]}]}]},
{"_id":"08bfdc35-cf67-4ec7-a9df-1cdcd33aabee","name":"Weimann-Cormier Cinema","email":"mstubbe1h@timesonline.co.uk","phone":"812-949-7889","country":"United States","address":"57 Straubel Drive","State":"Indiana","City":"Evansville","Zip":"47747","lat":38.03,"long":-87.58,"showings":[{"movies":[{"id":"1000727","timings":[{"time":"9:00","capacity_max":250,"capacity_consumed":149},{"time":"12:00","capacity_max":230,"capacity_consumed":100}]}]}]},
{"_id":"be659514-375f-4f7c-848f-e251224436a0","name":"Collins Group Cinema","email":"omartins1i@digg.com","phone":"317-745-7972","country":"United States","address":"2 Merchant Circle","State":"Indiana","City":"Indianapolis","Zip":"46254","lat":39.8494377,"long":-86.2666463,"showings":[{"movies":[{"id":"1000727","timings":[{"time":"9:00","capacity_max":200,"capacity_consumed":50},{"time":"12:00","capacity_max":250,"capacity_consumed":50}]},{"id":"1005486","timings":[{"time":"9:00","capacity_max":150,"capacity_consumed":80},{"time":"12:00","capacity_max":170,"capacity_consumed":80},{"time":"14:00","capacity_max":150,"capacity_consumed":100},{"time":"17:00","capacity_max":200,"capacity_consumed":30},{"time":"20:00","capacity_max":200,"capacity_consumed":149}]},{"id":"1005799","timings":[{"time":"9:00","capacity_max":150,"capacity_consumed":30},{"time":"12:00","capacity_max":150,"capacity_consumed":50},{"time":"14:00","capacity_max":150,"capacity_consumed":149},{"time":"17:00","capacity_max":250,"capacity_consumed":100},{"time":"20:00","capacity_max":150,"capacity_consumed":30}]}]}]},
{"_id":"53d7973a-aeff-4ca2-ad45-09bf94e61436","name":"Lockman-Beer Cinema","email":"bgregoletti1j@merriam-webster.com","phone":"260-975-7259","country":"United States","address":"815 Sutteridge Parkway","State":"Indiana","City":"Fort Wayne","Zip":"46857","lat":41.07,"long":-85.14,"showings":[{"movies":[{"id":"1000727","timings":[{"time":"9:00","capacity_max":150,"capacity_consumed":50},{"time":"12:00","capacity_max":150,"capacity_consumed":80},{"time":"14:00","capacity_max":150,"capacity_consumed":100},{"time":"17:00","capacity_max":150,"capacity_consumed":30},{"time":"20:00","capacity_max":150,"capacity_consumed":80}]},{"id":"1005486","timings":[{"time":"9:00","capacity_max":150,"capacity_consumed":50},{"time":"12:00","capacity_max":200,"capacity_consumed":80}]}]}]},
{"_id":"c1b1f3c7-a963-45e5-83ea-d8ced7555e2e","name":"Kub, Conn and Fadel Cinema","email":"kstevings1k@netlog.com","phone":"260-958-2494","country":"United States","address":"78038 Scofield Crossing","State":"Indiana","City":"Fort Wayne","Zip":"46852","lat":41.07,"long":-85.14,"showings":[{"movies":[{"id":"1000727","timings":[{"time":"9:00","capacity_max":200,"capacity_consumed":30},{"time":"12:00","capacity_max":200,"capacity_consumed":149}]},{"id":"1005486","timings":[{"time":"9:00","capacity_max":230,"capacity_consumed":80},{"time":"12:00","capacity_max":230,"capacity_consumed":149}]}]}]},
{"_id":"883722d3-510d-4db9-a426-4d489a55fa5b","name":"Stanton, Ortiz and Sawayn Cinema","email":"mbarrowcliff1l@dedecms.com","phone":"317-224-6622","country":"United States","address":"4073 Westport Plaza","State":"Indiana","City":"Indianapolis","Zip":"46254","lat":39.8494377,"long":-86.2666463,"showings":[{"movies":[{"id":"1000727","timings":[{"time":"9:00","capacity_max":230,"capacity_consumed":50},{"time":"12:00","capacity_max":200,"capacity_consumed":100},{"time":"14:00","capacity_max":150,"capacity_consumed":50},{"time":"17:00","capacity_max":250,"capacity_consumed":30},{"time":"20:00","capacity_max":200,"capacity_consumed":30}]},{"id":"1005486","timings":[{"time":"9:00","capacity_max":150,"capacity_consumed":149},{"time":"12:00","capacity_max":230,"capacity_consumed":149},{"time":"14:00","capacity_max":170,"capacity_consumed":30},{"time":"17:00","capacity_max":250,"capacity_consumed":149}]}]}]},
{"_id":"a2a35976-eeed-4cd3-a2c6-2d8f0b98d39e","name":"Kshlerin, Nader and Sanford Cinema","email":"squimby1m@spotify.com","phone":"317-639-3405","country":"United States","address":"46580 8th Parkway","State":"Indiana","City":"Indianapolis","Zip":"46254","lat":39.8494377,"long":-86.2666463,"showings":[{"movies":[{"id":"1000727","timings":[{"time":"9:00","capacity_max":170,"capacity_consumed":50},{"time":"12:00","capacity_max":200,"capacity_consumed":100},{"time":"14:00","capacity_max":250,"capacity_consumed":80},{"time":"17:00","capacity_max":150,"capacity_consumed":100}]},{"id":"1005486","timings":[{"time":"9:00","capacity_max":250,"capacity_consumed":100},{"time":"12:00","capacity_max":230,"capacity_consumed":100}]}]}]},
{"_id":"89816ff3-e093-404a-a727-f750e84cd5f2","name":"Jerde, Rodriguez and Rogahn Cinema","email":"rcristofaro1n@kickstarter.com","phone":"765-789-1129","country":"United States","address":"4891 Banding Pass","State":"Indiana","City":"Indianapolis","Zip":"46202","lat":39.7794767,"long":-86.1700894,"showings":[{"movies":[{"id":"1000727","timings":[{"time":"9:00","capacity_max":230,"capacity_consumed":30},{"time":"12:00","capacity_max":230,"capacity_consumed":100},{"time":"14:00","capacity_max":250,"capacity_consumed":50},{"time":"17:00","capacity_max":230,"capacity_consumed":30},{"time":"20:00","capacity_max":250,"capacity_consumed":100}]},{"id":"1005486","timings":[{"time":"9:00","capacity_max":150,"capacity_consumed":80},{"time":"12:00","capacity_max":250,"capacity_consumed":30},{"time":"14:00","capacity_max":200,"capacity_consumed":30},{"time":"17:00","capacity_max":200,"capacity_consumed":100}]}]}]},
{"_id":"245ac81b-f35d-45ca-afd2-98f5309ea8c3","name":"Hauck, Volkman and Turner Cinema","email":"jcairney1o@ow.ly","phone":"260-541-7534","country":"United States","address":"8209 Erie Center","State":"Indiana","City":"Fort Wayne","Zip":"46857","lat":41.07,"long":-85.14,"showings":[{"movies":[{"id":"1000727","timings":[{"time":"9:00","capacity_max":170,"capacity_consumed":30},{"time":"12:00","capacity_max":200,"capacity_consumed":149}]}]}]},
{"_id":"28442cb2-696d-41da-a824-3ae6cdf15c95","name":"Kerluke LLC Cinema","email":"bhynde1p@ning.com","phone":"812-827-0773","country":"United States","address":"064 Drewry Circle","State":"Indiana","City":"Evansville","Zip":"47747","lat":38.03,"long":-87.58,"showings":[{"movies":[{"id":"1000727","timings":[{"time":"9:00","capacity_max":170,"capacity_consumed":149},{"time":"12:00","capacity_max":250,"capacity_consumed":30}]},{"id":"1005486","timings":[{"time":"9:00","capacity_max":170,"capacity_consumed":80},{"time":"12:00","capacity_max":230,"capacity_consumed":100},{"time":"14:00","capacity_max":150,"capacity_consumed":30},{"time":"17:00","capacity_max":150,"capacity_consumed":149},{"time":"20:00","capacity_max":250,"capacity_consumed":80}]},{"id":"1005799","timings":[{"time":"9:00","capacity_max":200,"capacity_consumed":149},{"time":"12:00","capacity_max":150,"capacity_consumed":30},{"time":"14:00","capacity_max":200,"capacity_consumed":80},{"time":"17:00","capacity_max":150,"capacity_consumed":30}]}]}]},
{"_id":"41e0ca82-c86e-4486-88ed-75e06aada032","name":"Grant Inc Cinema","email":"mekell1q@unesco.org","phone":"317-416-1950","country":"United States","address":"22025 Hazelcrest Pass","State":"Indiana","City":"Indianapolis","Zip":"46295","lat":39.67,"long":-86.19,"showings":[{"movies":[{"id":"1000727","timings":[{"time":"9:00","capacity_max":150,"capacity_consumed":100},{"time":"12:00","capacity_max":200,"capacity_consumed":30}]},{"id":"1005486","timings":[{"time":"9:00","capacity_max":250,"capacity_consumed":149},{"time":"12:00","capacity_max":170,"capacity_consumed":100},{"time":"14:00","capacity_max":250,"capacity_consumed":80},{"time":"17:00","capacity_max":200,"capacity_consumed":149},{"time":"20:00","capacity_max":150,"capacity_consumed":80}]},{"id":"1005799","timings":[{"time":"9:00","capacity_max":250,"capacity_consumed":30},{"time":"12:00","capacity_max":230,"capacity_consumed":149}]}]}]},
{"_id":"4d3e63df-98f6-45e2-b44a-7ce2b0991e19","name":"Brakus-Beahan Cinema","email":"hbenoix1r@ox.ac.uk","phone":"812-669-2810","country":"United States","address":"12587 Kennedy Place","State":"Indiana","City":"Evansville","Zip":"47725","lat":37.9715592,"long":-87.5710898,"showings":[{"movies":[{"id":"1000727","timings":[{"time":"9:00","capacity_max":230,"capacity_consumed":30},{"time":"12:00","capacity_max":250,"capacity_consumed":149},{"time":"14:00","capacity_max":230,"capacity_consumed":80}]},{"id":"1005486","timings":[{"time":"9:00","capacity_max":230,"capacity_consumed":80},{"time":"12:00","capacity_max":230,"capacity_consumed":50},{"time":"14:00","capacity_max":200,"capacity_consumed":149},{"time":"17:00","capacity_max":200,"capacity_consumed":30}]},{"id":"1005799","timings":[{"time":"9:00","capacity_max":150,"capacity_consumed":100},{"time":"12:00","capacity_max":250,"capacity_consumed":100},{"time":"14:00","capacity_max":150,"capacity_consumed":149}]}]}]},
{"_id":"1da5de7f-ca73-4921-bf9a-e1fa3d24225c","name":"Wisozk-Cartwright Cinema","email":"rdeplacido1s@nbcnews.com","phone":"765-193-4012","country":"United States","address":"418 Southridge Park","State":"Indiana","City":"Indianapolis","Zip":"46202","lat":39.7794767,"long":-86.1700894,"showings":[{"movies":[{"id":"1000727","timings":[{"time":"9:00","capacity_max":170,"capacity_consumed":80},{"time":"12:00","capacity_max":230,"capacity_consumed":30}]},{"id":"1005486","timings":[{"time":"9:00","capacity_max":170,"capacity_consumed":80},{"time":"12:00","capacity_max":230,"capacity_consumed":149},{"time":"14:00","capacity_max":200,"capacity_consumed":100},{"time":"17:00","capacity_max":150,"capacity_consumed":50},{"time":"20:00","capacity_max":250,"capacity_consumed":50}]},{"id":"1005799","timings":[{"time":"9:00","capacity_max":200,"capacity_consumed":100},{"time":"12:00","capacity_max":200,"capacity_consumed":50},{"time":"14:00","capacity_max":250,"capacity_consumed":149},{"time":"17:00","capacity_max":200,"capacity_consumed":80}]}]}]},
{"_id":"f6ff5741-8552-4426-97d9-e503c3bbd76d","name":"Schiller Group Cinema","email":"wwassung1t@google.ru","phone":"812-442-1479","country":"United States","address":"30 Springview Pass","State":"Indiana","City":"Evansville","Zip":"47732","lat":37.97,"long":-87.5699999,"showings":[{"movies":[{"id":"1000727","timings":[{"time":"9:00","capacity_max":150,"capacity_consumed":149},{"time":"12:00","capacity_max":230,"capacity_consumed":100}]},{"id":"1005486","timings":[{"time":"9:00","capacity_max":230,"capacity_consumed":100},{"time":"12:00","capacity_max":250,"capacity_consumed":50},{"time":"14:00","capacity_max":170,"capacity_consumed":50},{"time":"17:00","capacity_max":200,"capacity_consumed":100},{"time":"20:00","capacity_max":250,"capacity_consumed":50}]}]}]},
{"_id":"09568e44-08d7-416d-ba78-c3ddcf2186e2","name":"Hackett LLC Cinema","email":"tmathes1u@statcounter.com","phone":"260-400-9312","country":"United States","address":"93 Thompson Circle","State":"Indiana","City":"Fort Wayne","Zip":"46852","lat":41.07,"long":-85.14,"showings":[{"movies":[{"id":"1000727","timings":[{"time":"9:00","capacity_max":250,"capacity_consumed":50},{"time":"12:00","capacity_max":200,"capacity_consumed":50},{"time":"14:00","capacity_max":230,"capacity_consumed":100},{"time":"17:00","capacity_max":250,"capacity_consumed":149},{"time":"20:00","capacity_max":200,"capacity_consumed":50}]}]}]},
{"_id":"e5d6be85-e3d1-4d2d-8659-b0ec0c467840","name":"Kovacek-Wilderman Cinema","email":"kabbs1v@privacy.gov.au","phone":"260-802-5593","country":"United States","address":"835 Anthes Drive","State":"Indiana","City":"Fort Wayne","Zip":"46852","lat":41.07,"long":-85.14,"showings":[{"movies":[{"id":"1000727","timings":[{"time":"9:00","capacity_max":200,"capacity_consumed":30},{"time":"12:00","capacity_max":230,"capacity_consumed":30},{"time":"14:00","capacity_max":230,"capacity_consumed":100},{"time":"17:00","capacity_max":230,"capacity_consumed":149},{"time":"20:00","capacity_max":250,"capacity_consumed":30}]},{"id":"1005486","timings":[{"time":"9:00","capacity_max":150,"capacity_consumed":50},{"time":"12:00","capacity_max":250,"capacity_consumed":80}]}]}]},
{"_id":"3f1506f5-e947-4083-9e7e-6301fbfeb760","name":"Rohan-Muller Cinema","email":"ewelband1w@cdbaby.com","phone":"260-695-5725","country":"United States","address":"84987 Acker Way","State":"Indiana","City":"Fort Wayne","Zip":"46852","lat":41.07,"long":-85.14,"showings":[{"movies":[{"id":"1000727","timings":[{"time":"9:00","capacity_max":200,"capacity_consumed":80},{"time":"12:00","capacity_max":200,"capacity_consumed":50},{"time":"14:00","capacity_max":170,"capacity_consumed":30},{"time":"17:00","capacity_max":230,"capacity_consumed":50}]},{"id":"1005486","timings":[{"time":"9:00","capacity_max":230,"capacity_consumed":50},{"time":"12:00","capacity_max":150,"capacity_consumed":149},{"time":"14:00","capacity_max":150,"capacity_consumed":30},{"time":"17:00","capacity_max":200,"capacity_consumed":30},{"time":"20:00","capacity_max":150,"capacity_consumed":100}]},{"id":"1005799","timings":[{"time":"9:00","capacity_max":250,"capacity_consumed":100},{"time":"12:00","capacity_max":230,"capacity_consumed":100},{"time":"14:00","capacity_max":150,"capacity_consumed":80},{"time":"17:00","capacity_max":150,"capacity_consumed":50}]}]}]},
{"_id":"71f42539-d8c6-4e74-bc4e-77a99a11091c","name":"Davis, Watsica and Nolan Cinema","email":"hroggers1x@github.io","phone":"812-138-4121","country":"United States","address":"67084 Pankratz Drive","State":"Indiana","City":"Jeffersonville","Zip":"47134","lat":38.34,"long":-85.7,"showings":[{"movies":[{"id":"1000727","timings":[{"time":"9:00","capacity_max":230,"capacity_consumed":50},{"time":"12:00","capacity_max":170,"capacity_consumed":80},{"time":"14:00","capacity_max":230,"capacity_consumed":30}]},{"id":"1005486","timings":[{"time":"9:00","capacity_max":200,"capacity_consumed":149},{"time":"12:00","capacity_max":250,"capacity_consumed":80}]},{"id":"1005799","timings":[{"time":"9:00","capacity_max":170,"capacity_consumed":149},{"time":"12:00","capacity_max":200,"capacity_consumed":80},{"time":"14:00","capacity_max":170,"capacity_consumed":80}]}]}]},
{"_id":"c652498f-5fce-4c15-a799-c29645e8f2cd","name":"Becker, Satterfield and Cartwright Cinema","email":"dmasser1y@tinypic.com","phone":"317-379-9172","country":"United States","address":"845 Union Way","State":"Indiana","City":"Indianapolis","Zip":"46202","lat":39.7794767,"long":-86.1700894,"showings":[{"movies":[{"id":"1000727","timings":[{"time":"9:00","capacity_max":200,"capacity_consumed":80},{"time":"12:00","capacity_max":230,"capacity_consumed":50},{"time":"14:00","capacity_max":230,"capacity_consumed":80},{"time":"17:00","capacity_max":200,"capacity_consumed":80},{"time":"20:00","capacity_max":200,"capacity_consumed":30}]},{"id":"1005486","timings":[{"time":"9:00","capacity_max":250,"capacity_consumed":30},{"time":"12:00","capacity_max":250,"capacity_consumed":149},{"time":"14:00","capacity_max":200,"capacity_consumed":50},{"time":"17:00","capacity_max":170,"capacity_consumed":149}]},{"id":"1005799","timings":[{"time":"9:00","capacity_max":200,"capacity_consumed":149},{"time":"12:00","capacity_max":170,"capacity_consumed":80}]}]}]},
{"_id":"fe05769f-8f67-4009-be6a-24d888060a59","name":"Mertz-Hintz Cinema","email":"ccrankhorn1z@nationalgeographic.com","phone":"317-175-4497","country":"United States","address":"752 Crownhardt Parkway","State":"Indiana","City":"Indianapolis","Zip":"46278","lat":39.8911731,"long":-86.2869507,"showings":[{"movies":[{"id":"1000727","timings":[{"time":"9:00","capacity_max":150,"capacity_consumed":80},{"time":"12:00","capacity_max":250,"capacity_consumed":80},{"time":"14:00","capacity_max":250,"capacity_consumed":100}]}]}]},
{"_id":"859a91a8-1425-4b02-b529-c43e7f9b3b01","name":"Schmidt-Hammes Cinema","email":"ageddis20@delicious.com","phone":"812-282-3834","country":"United States","address":"66 Gale Way","State":"Indiana","City":"Evansville","Zip":"47719","lat":38.0515795,"long":-87.6876112,"showings":[{"movies":[{"id":"1000727","timings":[{"time":"9:00","capacity_max":250,"capacity_consumed":149},{"time":"12:00","capacity_max":170,"capacity_consumed":30}]}]}]},
{"_id":"77c1a32f-1f5f-4f46-938e-7a2045cf32d6","name":"Romaguera-Nader Cinema","email":"vtart21@ucoz.com","phone":"260-360-5227","country":"United States","address":"87 Lighthouse Bay Trail","State":"Indiana","City":"Fort Wayne","Zip":"46857","lat":41.07,"long":-85.14,"showings":[{"movies":[{"id":"1000727","timings":[{"time":"9:00","capacity_max":170,"capacity_consumed":30},{"time":"12:00","capacity_max":200,"capacity_consumed":100},{"time":"14:00","capacity_max":230,"capacity_consumed":30},{"time":"17:00","capacity_max":150,"capacity_consumed":30}]},{"id":"1005486","timings":[{"time":"9:00","capacity_max":230,"capacity_consumed":149},{"time":"12:00","capacity_max":170,"capacity_consumed":50}]}]}]},
{"_id":"6b7372c3-cf02-4ef9-ba2e-80a1874fc73a","name":"Bernhard, O'Kon and Marks Cinema","email":"etop22@meetup.com","phone":"812-289-2405","country":"United States","address":"10871 Mariners Cove Avenue","State":"Indiana","City":"Evansville","Zip":"47747","lat":38.03,"long":-87.58,"showings":[{"movies":[{"id":"1000727","timings":[{"time":"9:00","capacity_max":230,"capacity_consumed":80},{"time":"12:00","capacity_max":200,"capacity_consumed":100},{"time":"14:00","capacity_max":230,"capacity_consumed":30},{"time":"17:00","capacity_max":230,"capacity_consumed":149}]},{"id":"1005486","timings":[{"time":"9:00","capacity_max":230,"capacity_consumed":50},{"time":"12:00","capacity_max":250,"capacity_consumed":80},{"time":"14:00","capacity_max":200,"capacity_consumed":50},{"time":"17:00","capacity_max":250,"capacity_consumed":30}]},{"id":"1005799","timings":[{"time":"9:00","capacity_max":200,"capacity_consumed":80},{"time":"12:00","capacity_max":250,"capacity_consumed":149},{"time":"14:00","capacity_max":170,"capacity_consumed":50}]}]}]},
{"_id":"4045310a-043f-4026-992d-bb0f0732f259","name":"Wuckert, Johns and Ritchie Cinema","email":"sreyner23@blinklist.com","phone":"812-980-7896","country":"United States","address":"22 Ohio Alley","State":"Indiana","City":"Jeffersonville","Zip":"47134","lat":38.34,"long":-85.7,"showings":[{"movies":[{"id":"1000727","timings":[{"time":"9:00","capacity_max":250,"capacity_consumed":80},{"time":"12:00","capacity_max":200,"capacity_consumed":50}]},{"id":"1005486","timings":[{"time":"9:00","capacity_max":200,"capacity_consumed":50},{"time":"12:00","capacity_max":230,"capacity_consumed":80}]}]}]},
{"_id":"63a70889-cf42-4f20-94c7-7759ac460c4a","name":"Bartell-Cole Cinema","email":"lvinter24@dagondesign.com","phone":"812-882-2661","country":"United States","address":"4848 Shopko Road","State":"Indiana","City":"Bloomington","Zip":"47405","lat":39.1714266,"long":-86.5186022,"showings":[{"movies":[{"id":"1000727","timings":[{"time":"9:00","capacity_max":230,"capacity_consumed":50},{"time":"12:00","capacity_max":250,"capacity_consumed":50}]},{"id":"1005486","timings":[{"time":"9:00","capacity_max":150,"capacity_consumed":50},{"time":"12:00","capacity_max":250,"capacity_consumed":100},{"time":"14:00","capacity_max":150,"capacity_consumed":50}]},{"id":"1005799","timings":[{"time":"9:00","capacity_max":150,"capacity_consumed":80},{"time":"12:00","capacity_max":200,"capacity_consumed":80},{"time":"14:00","capacity_max":170,"capacity_consumed":50}]}]}]},
{"_id":"e9e54ca9-8dcb-4689-a698-167086ef1a06","name":"Mraz, Lind and Nitzsche Cinema","email":"sdicte25@free.fr","phone":"317-794-8424","country":"United States","address":"747 Maywood Circle","State":"Indiana","City":"Indianapolis","Zip":"46278","lat":39.8911731,"long":-86.2869507,"showings":[{"movies":[{"id":"1000727","timings":[{"time":"9:00","capacity_max":230,"capacity_consumed":100},{"time":"12:00","capacity_max":230,"capacity_consumed":30},{"time":"14:00","capacity_max":150,"capacity_consumed":100},{"time":"17:00","capacity_max":230,"capacity_consumed":100},{"time":"20:00","capacity_max":200,"capacity_consumed":30}]}]}]},
{"_id":"2cb914c9-7111-4906-8be8-387fae071cbf","name":"Botsford Inc Cinema","email":"jrymill26@shop-pro.jp","phone":"317-780-2439","country":"United States","address":"50515 Glacier Hill Lane","State":"Indiana","City":"Indianapolis","Zip":"46278","lat":39.8911731,"long":-86.2869507,"showings":[{"movies":[{"id":"1000727","timings":[{"time":"9:00","capacity_max":200,"capacity_consumed":149},{"time":"12:00","capacity_max":250,"capacity_consumed":30},{"time":"14:00","capacity_max":150,"capacity_consumed":100},{"time":"17:00","capacity_max":170,"capacity_consumed":100},{"time":"20:00","capacity_max":170,"capacity_consumed":50}]},{"id":"1005486","timings":[{"time":"9:00","capacity_max":230,"capacity_consumed":100},{"time":"12:00","capacity_max":230,"capacity_consumed":50}]},{"id":"1005799","timings":[{"time":"9:00","capacity_max":230,"capacity_consumed":50},{"time":"12:00","capacity_max":170,"capacity_consumed":149},{"time":"14:00","capacity_max":200,"capacity_consumed":80},{"time":"17:00","capacity_max":150,"capacity_consumed":30},{"time":"20:00","capacity_max":250,"capacity_consumed":30}]}]}]},
{"_id":"bd82db89-fa79-4c55-a762-c6971a8da4ce","name":"Runolfsson-Kihn Cinema","email":"dimlaw27@trellian.com","phone":"812-233-8237","country":"United States","address":"0617 Lawn Trail","State":"Indiana","City":"Terre Haute","Zip":"47812","lat":39.4596137,"long":-87.3478243,"showings":[{"movies":[{"id":"1000727","timings":[{"time":"9:00","capacity_max":150,"capacity_consumed":30},{"time":"12:00","capacity_max":150,"capacity_consumed":50},{"time":"14:00","capacity_max":200,"capacity_consumed":100},{"time":"17:00","capacity_max":250,"capacity_consumed":50},{"time":"20:00","capacity_max":150,"capacity_consumed":100}]},{"id":"1005486","timings":[{"time":"9:00","capacity_max":250,"capacity_consumed":100},{"time":"12:00","capacity_max":250,"capacity_consumed":80},{"time":"14:00","capacity_max":250,"capacity_consumed":80}]},{"id":"1005799","timings":[{"time":"9:00","capacity_max":170,"capacity_consumed":149},{"time":"12:00","capacity_max":250,"capacity_consumed":50},{"time":"14:00","capacity_max":200,"capacity_consumed":50},{"time":"17:00","capacity_max":170,"capacity_consumed":100}]}]}]},
{"_id":"5ff60aaa-737d-4480-982b-d69f90b04462","name":"Stark, Luettgen and Sawayn Cinema","email":"dtrussell28@army.mil","phone":"317-785-8479","country":"United States","address":"166 Brown Street","State":"Indiana","City":"Indianapolis","Zip":"46295","lat":39.67,"long":-86.19,"showings":[{"movies":[{"id":"1000727","timings":[{"time":"9:00","capacity_max":250,"capacity_consumed":80},{"time":"12:00","capacity_max":150,"capacity_consumed":80},{"time":"14:00","capacity_max":170,"capacity_consumed":80},{"time":"17:00","capacity_max":170,"capacity_consumed":149},{"time":"20:00","capacity_max":150,"capacity_consumed":100}]},{"id":"1005486","timings":[{"time":"9:00","capacity_max":170,"capacity_consumed":149},{"time":"12:00","capacity_max":150,"capacity_consumed":149}]}]}]},
{"_id":"a641e91a-91b0-4cbd-9b5e-63cf1839574d","name":"Konopelski-Kiehn Cinema","email":"saldwick29@tripod.com","phone":"260-379-9995","country":"United States","address":"4 Killdeer Court","State":"Indiana","City":"Fort Wayne","Zip":"46862","lat":41.07,"long":-85.14,"showings":[{"movies":[{"id":"1000727","timings":[{"time":"9:00","capacity_max":230,"capacity_consumed":149},{"time":"12:00","capacity_max":200,"capacity_consumed":149},{"time":"14:00","capacity_max":170,"capacity_consumed":80},{"time":"17:00","capacity_max":170,"capacity_consumed":30}]}]}]},
{"_id":"2facd807-57f2-4385-b4e6-d3f14e71c231","name":"Zboncak-Batz Cinema","email":"rclemitt2a@globo.com","phone":"574-684-5541","country":"United States","address":"411 Commercial Parkway","State":"Indiana","City":"South Bend","Zip":"46620","lat":41.6919638,"long":-86.3754398,"showings":[{"movies":[{"id":"1000727","timings":[{"time":"9:00","capacity_max":150,"capacity_consumed":30},{"time":"12:00","capacity_max":200,"capacity_consumed":149},{"time":"14:00","capacity_max":230,"capacity_consumed":50},{"time":"17:00","capacity_max":230,"capacity_consumed":149}]},{"id":"1005486","timings":[{"time":"9:00","capacity_max":250,"capacity_consumed":50},{"time":"12:00","capacity_max":150,"capacity_consumed":30},{"time":"14:00","capacity_max":250,"capacity_consumed":149},{"time":"17:00","capacity_max":200,"capacity_consumed":149}]}]}]},
{"_id":"80c59eaa-222b-4263-91b4-769093ce70e4","name":"Gusikowski, Larkin and Bogisich Cinema","email":"apringer2b@seattletimes.com","phone":"812-342-4468","country":"United States","address":"50 Packers Way","State":"Indiana","City":"Terre Haute","Zip":"47812","lat":39.4596137,"long":-87.3478243,"showings":[{"movies":[{"id":"1000727","timings":[{"time":"9:00","capacity_max":230,"capacity_consumed":100},{"time":"12:00","capacity_max":230,"capacity_consumed":80},{"time":"14:00","capacity_max":150,"capacity_consumed":30},{"time":"17:00","capacity_max":150,"capacity_consumed":80},{"time":"20:00","capacity_max":250,"capacity_consumed":80}]},{"id":"1005486","timings":[{"time":"9:00","capacity_max":230,"capacity_consumed":30},{"time":"12:00","capacity_max":170,"capacity_consumed":50}]}]}]},
{"_id":"37ad6eff-cdd0-43bc-bc7f-3a1aac5db078","name":"Mertz-Swaniawski Cinema","email":"lthompstone2c@theatlantic.com","phone":"317-583-1406","country":"United States","address":"9848 2nd Pass","State":"Indiana","City":"Indianapolis","Zip":"46254","lat":39.8494377,"long":-86.2666463,"showings":[{"movies":[{"id":"1000727","timings":[{"time":"9:00","capacity_max":230,"capacity_consumed":50},{"time":"12:00","capacity_max":200,"capacity_consumed":50},{"time":"14:00","capacity_max":200,"capacity_consumed":30}]},{"id":"1005486","timings":[{"time":"9:00","capacity_max":150,"capacity_consumed":149},{"time":"12:00","capacity_max":170,"capacity_consumed":80},{"time":"14:00","capacity_max":200,"capacity_consumed":149},{"time":"17:00","capacity_max":200,"capacity_consumed":100}]}]}]},
{"_id":"3de2628f-67ce-4266-9363-4eff75e158c5","name":"Schiller, Heaney and Mills Cinema","email":"efranchi2d@1688.com","phone":"260-126-5052","country":"United States","address":"8 Swallow Place","State":"Indiana","City":"Fort Wayne","Zip":"46862","lat":41.07,"long":-85.14,"showings":[{"movies":[{"id":"1000727","timings":[{"time":"9:00","capacity_max":170,"capacity_consumed":50},{"time":"12:00","capacity_max":200,"capacity_consumed":149}]},{"id":"1005486","timings":[{"time":"9:00","capacity_max":230,"capacity_consumed":80},{"time":"12:00","capacity_max":150,"capacity_consumed":100},{"time":"14:00","capacity_max":200,"capacity_consumed":50}]}]}]},
{"_id":"0e9a7952-a794-46e7-bfb9-498ad89e668e","name":"Buckridge and Sons Cinema","email":"awoodrow2e@typepad.com","phone":"260-551-0097","country":"United States","address":"9 Hazelcrest Parkway","State":"Indiana","City":"Fort Wayne","Zip":"46852","lat":41.07,"long":-85.14,"showings":[{"movies":[{"id":"1000727","timings":[{"time":"9:00","capacity_max":150,"capacity_consumed":149},{"time":"12:00","capacity_max":150,"capacity_consumed":80},{"time":"14:00","capacity_max":200,"capacity_consumed":80},{"time":"17:00","capacity_max":200,"capacity_consumed":50}]},{"id":"1005486","timings":[{"time":"9:00","capacity_max":250,"capacity_consumed":100},{"time":"12:00","capacity_max":170,"capacity_consumed":149}]},{"id":"1005799","timings":[{"time":"9:00","capacity_max":200,"capacity_consumed":100},{"time":"12:00","capacity_max":170,"capacity_consumed":30},{"time":"14:00","capacity_max":170,"capacity_consumed":80},{"time":"17:00","capacity_max":200,"capacity_consumed":100}]}]}]},
{"_id":"1cb90d2f-eada-4be5-9475-692edb8aa2f5","name":"Jaskolski LLC Cinema","email":"bkillough2f@webeden.co.uk","phone":"812-125-2142","country":"United States","address":"6 Lyons Crossing","State":"Indiana","City":"Bloomington","Zip":"47405","lat":39.1714266,"long":-86.5186022,"showings":[{"movies":[{"id":"1000727","timings":[{"time":"9:00","capacity_max":250,"capacity_consumed":100},{"time":"12:00","capacity_max":170,"capacity_consumed":80},{"time":"14:00","capacity_max":230,"capacity_consumed":80},{"time":"17:00","capacity_max":200,"capacity_consumed":100}]},{"id":"1005486","timings":[{"time":"9:00","capacity_max":170,"capacity_consumed":100},{"time":"12:00","capacity_max":150,"capacity_consumed":100},{"time":"14:00","capacity_max":150,"capacity_consumed":80},{"time":"17:00","capacity_max":230,"capacity_consumed":149},{"time":"20:00","capacity_max":200,"capacity_consumed":80}]},{"id":"1005799","timings":[{"time":"9:00","capacity_max":150,"capacity_consumed":80},{"time":"12:00","capacity_max":200,"capacity_consumed":30},{"time":"14:00","capacity_max":150,"capacity_consumed":149},{"time":"17:00","capacity_max":170,"capacity_consumed":50},{"time":"20:00","capacity_max":150,"capacity_consumed":50}]}]}]},
{"_id":"50c3959d-07b9-42e6-8a05-bab809ba81d0","name":"Funk, Kertzmann and Blick Cinema","email":"efricker2g@macromedia.com","phone":"260-691-5172","country":"United States","address":"082 Lotheville Drive","State":"Indiana","City":"Fort Wayne","Zip":"46896","lat":41.01,"long":-85.06,"showings":[{"movies":[{"id":"1000727","timings":[{"time":"9:00","capacity_max":230,"capacity_consumed":149},{"time":"12:00","capacity_max":200,"capacity_consumed":149},{"time":"14:00","capacity_max":170,"capacity_consumed":149}]},{"id":"1005486","timings":[{"time":"9:00","capacity_max":150,"capacity_consumed":149},{"time":"12:00","capacity_max":200,"capacity_consumed":149},{"time":"14:00","capacity_max":170,"capacity_consumed":30},{"time":"17:00","capacity_max":170,"capacity_consumed":100},{"time":"20:00","capacity_max":170,"capacity_consumed":80}]}]}]},
{"_id":"35d4d360-ee4c-4e1f-9bc8-17b87c6381c1","name":"Baumbach, Stokes and Wunsch Cinema","email":"mmerigon2h@google.it","phone":"317-376-6809","country":"United States","address":"5 Buell Parkway","State":"Indiana","City":"Indianapolis","Zip":"46202","lat":39.7794767,"long":-86.1700894,"showings":[{"movies":[{"id":"1000727","timings":[{"time":"9:00","capacity_max":200,"capacity_consumed":100},{"time":"12:00","capacity_max":230,"capacity_consumed":30}]},{"id":"1005486","timings":[{"time":"9:00","capacity_max":200,"capacity_consumed":80},{"time":"12:00","capacity_max":150,"capacity_consumed":50},{"time":"14:00","capacity_max":230,"capacity_consumed":30},{"time":"17:00","capacity_max":170,"capacity_consumed":30},{"time":"20:00","capacity_max":250,"capacity_consumed":80}]},{"id":"1005799","timings":[{"time":"9:00","capacity_max":170,"capacity_consumed":50},{"time":"12:00","capacity_max":170,"capacity_consumed":50}]}]}]},
{"_id":"8fd67e8f-c97c-47b8-bb70-4c29ba40cac2","name":"Bins, Collier and Jerde Cinema","email":"ecotgrave2i@jiathis.com","phone":"317-679-0934","country":"United States","address":"84184 Buhler Lane","State":"Indiana","City":"Indianapolis","Zip":"46278","lat":39.8911731,"long":-86.2869507,"showings":[{"movies":[{"id":"1000727","timings":[{"time":"9:00","capacity_max":230,"capacity_consumed":100},{"time":"12:00","capacity_max":200,"capacity_consumed":50},{"time":"14:00","capacity_max":230,"capacity_consumed":149},{"time":"17:00","capacity_max":150,"capacity_consumed":100}]},{"id":"1005486","timings":[{"time":"9:00","capacity_max":150,"capacity_consumed":30},{"time":"12:00","capacity_max":230,"capacity_consumed":30}]}]}]},
{"_id":"9339d878-4e57-4f35-9774-034aa9984d7b","name":"Beer-Swaniawski Cinema","email":"wkendrew2j@hatena.ne.jp","phone":"219-971-3937","country":"United States","address":"468 Burning Wood Circle","State":"Indiana","City":"Gary","Zip":"46406","lat":41.6020598,"long":-87.4108352,"showings":[{"movies":[{"id":"1000727","timings":[{"time":"9:00","capacity_max":200,"capacity_consumed":100},{"time":"12:00","capacity_max":170,"capacity_consumed":50},{"time":"14:00","capacity_max":230,"capacity_consumed":100},{"time":"17:00","capacity_max":200,"capacity_consumed":30}]},{"id":"1005486","timings":[{"time":"9:00","capacity_max":170,"capacity_consumed":100},{"time":"12:00","capacity_max":150,"capacity_consumed":149},{"time":"14:00","capacity_max":170,"capacity_consumed":30}]}]}]},
{"_id":"bd3cacab-6f45-467e-82d1-e3c223fe7b8e","name":"Wiegand, Morar and Strosin Cinema","email":"kavann2k@vkontakte.ru","phone":"317-840-7676","country":"United States","address":"7269 Park Meadow Point","State":"Indiana","City":"Indianapolis","Zip":"46254","lat":39.8494377,"long":-86.2666463,"showings":[{"movies":[{"id":"1000727","timings":[{"time":"9:00","capacity_max":150,"capacity_consumed":50},{"time":"12:00","capacity_max":170,"capacity_consumed":30}]}]}]},
{"_id":"4988ea32-86cc-4d55-9252-4d88f2b3ce4f","name":"Paucek Group Cinema","email":"mbagnal2l@blog.com","phone":"219-610-6917","country":"United States","address":"30301 Daystar Drive","State":"Indiana","City":"Gary","Zip":"46406","lat":41.6020598,"long":-87.4108352,"showings":[{"movies":[{"id":"1000727","timings":[{"time":"9:00","capacity_max":200,"capacity_consumed":80},{"time":"12:00","capacity_max":150,"capacity_consumed":149},{"time":"14:00","capacity_max":200,"capacity_consumed":30},{"time":"17:00","capacity_max":250,"capacity_consumed":149}]},{"id":"1005486","timings":[{"time":"9:00","capacity_max":200,"capacity_consumed":50},{"time":"12:00","capacity_max":170,"capacity_consumed":149}]}]}]},
{"_id":"3cb62f4f-e38b-490d-96ad-dcdef63122d3","name":"Pfannerstill Group Cinema","email":"hitzig2m@netscape.com","phone":"812-623-2651","country":"United States","address":"80703 Maple Wood Center","State":"Indiana","City":"Bloomington","Zip":"47405","lat":39.1714266,"long":-86.5186022,"showings":[{"movies":[{"id":"1000727","timings":[{"time":"9:00","capacity_max":170,"capacity_consumed":80},{"time":"12:00","capacity_max":170,"capacity_consumed":149},{"time":"14:00","capacity_max":250,"capacity_consumed":30}]},{"id":"1005486","timings":[{"time":"9:00","capacity_max":150,"capacity_consumed":100},{"time":"12:00","capacity_max":250,"capacity_consumed":80},{"time":"14:00","capacity_max":170,"capacity_consumed":30},{"time":"17:00","capacity_max":230,"capacity_consumed":149},{"time":"20:00","capacity_max":250,"capacity_consumed":100}]}]}]},
{"_id":"e0f9f174-8b1d-41d9-99c8-6d35bc4e68b7","name":"Nolan, Bernhard and Runolfsdottir Cinema","email":"flimmer2n@google.cn","phone":"812-503-2955","country":"United States","address":"547 Tomscot Alley","State":"Indiana","City":"Evansville","Zip":"47737","lat":37.97,"long":-87.5699999,"showings":[{"movies":[{"id":"1000727","timings":[{"time":"9:00","capacity_max":230,"capacity_consumed":30},{"time":"12:00","capacity_max":200,"capacity_consumed":30}]},{"id":"1005486","timings":[{"time":"9:00","capacity_max":150,"capacity_consumed":80},{"time":"12:00","capacity_max":170,"capacity_consumed":80},{"time":"14:00","capacity_max":200,"capacity_consumed":50},{"time":"17:00","capacity_max":230,"capacity_consumed":80}]},{"id":"1005799","timings":[{"time":"9:00","capacity_max":230,"capacity_consumed":30},{"time":"12:00","capacity_max":150,"capacity_consumed":149},{"time":"14:00","capacity_max":230,"capacity_consumed":80},{"time":"17:00","capacity_max":170,"capacity_consumed":30}]}]}]},
{"_id":"3e9aa42a-fdc4-4477-8030-23a00cc7f5dc","name":"Hayes LLC Cinema","email":"mschultze2o@google.ca","phone":"219-426-4204","country":"United States","address":"052 Prentice Place","State":"Indiana","City":"Gary","Zip":"46406","lat":41.6020598,"long":-87.4108352,"showings":[{"movies":[{"id":"1000727","timings":[{"time":"9:00","capacity_max":250,"capacity_consumed":80},{"time":"12:00","capacity_max":230,"capacity_consumed":149}]},{"id":"1005486","timings":[{"time":"9:00","capacity_max":200,"capacity_consumed":80},{"time":"12:00","capacity_max":170,"capacity_consumed":100},{"time":"14:00","capacity_max":150,"capacity_consumed":80},{"time":"17:00","capacity_max":170,"capacity_consumed":149},{"time":"20:00","capacity_max":200,"capacity_consumed":149}]}]}]},
{"_id":"897485d2-6f27-48ec-a5d5-22593fc9c835","name":"Dickinson Group Cinema","email":"ffaulkner2p@slate.com","phone":"812-465-8532","country":"United States","address":"2960 Thackeray Hill","State":"Indiana","City":"Evansville","Zip":"47747","lat":38.03,"long":-87.58,"showings":[{"movies":[{"id":"1000727","timings":[{"time":"9:00","capacity_max":150,"capacity_consumed":100},{"time":"12:00","capacity_max":250,"capacity_consumed":50},{"time":"14:00","capacity_max":170,"capacity_consumed":50},{"time":"17:00","capacity_max":250,"capacity_consumed":50}]},{"id":"1005486","timings":[{"time":"9:00","capacity_max":170,"capacity_consumed":30},{"time":"12:00","capacity_max":150,"capacity_consumed":80},{"time":"14:00","capacity_max":150,"capacity_consumed":100},{"time":"17:00","capacity_max":150,"capacity_consumed":100}]}]}]},
{"_id":"bc97d18a-ced7-4d1b-99be-1e538ce8450d","name":"Mills-Ledner Cinema","email":"dpochin2q@gnu.org","phone":"812-126-5472","country":"United States","address":"85768 Kingsford Plaza","State":"Indiana","City":"Evansville","Zip":"47732","lat":37.97,"long":-87.5699999,"showings":[{"movies":[{"id":"1000727","timings":[{"time":"9:00","capacity_max":250,"capacity_consumed":30},{"time":"12:00","capacity_max":200,"capacity_consumed":30}]},{"id":"1005486","timings":[{"time":"9:00","capacity_max":150,"capacity_consumed":50},{"time":"12:00","capacity_max":250,"capacity_consumed":100}]},{"id":"1005799","timings":[{"time":"9:00","capacity_max":150,"capacity_consumed":80},{"time":"12:00","capacity_max":230,"capacity_consumed":50},{"time":"14:00","capacity_max":200,"capacity_consumed":50},{"time":"17:00","capacity_max":230,"capacity_consumed":50}]}]}]},
{"_id":"30891835-89dd-4a49-9e58-38464fb8a6c9","name":"O'Kon-Johnson Cinema","email":"wpeace2r@unicef.org","phone":"260-595-3466","country":"United States","address":"2652 Melby Court","State":"Indiana","City":"Fort Wayne","Zip":"46857","lat":41.07,"long":-85.14,"showings":[{"movies":[{"id":"1000727","timings":[{"time":"9:00","capacity_max":170,"capacity_consumed":50},{"time":"12:00","capacity_max":230,"capacity_consumed":149},{"time":"14:00","capacity_max":250,"capacity_consumed":50}]},{"id":"1005486","timings":[{"time":"9:00","capacity_max":250,"capacity_consumed":149},{"time":"12:00","capacity_max":200,"capacity_consumed":100},{"time":"14:00","capacity_max":230,"capacity_consumed":30}]}]}]}]